{"type":"FeatureCollection","features":[{"geometry":{"type":"Point","coordinates":[-9.218056,38.757778]},"type":"Feature","properties":{"stationID":1,"lineID":1,"line":"Azul","name":"Amadora Este"}},{"geometry":{"type":"Point","coordinates":[-9.205,38.760278]},"type":"Feature","properties":{"stationID":2,"lineID":1,"line":"Azul","name":"Alfornelos"}},{"geometry":{"type":"Point","coordinates":[-9.196667,38.761389]},"type":"Feature","properties":{"stationID":3,"lineID":1,"line":"Azul","name":"Pontinha"}},{"geometry":{"type":"Point","coordinates":[-9.1925,38.758611]},"type":"Feature","properties":{"stationID":4,"lineID":1,"line":"Azul","name":"Carnide"}},{"geometry":{"type":"Point","coordinates":[-9.188611,38.7525]},"type":"Feature","properties":{"stationID":5,"lineID":1,"line":"Azul","name":"Col\u00e9gio Militar/Luz"}},{"geometry":{"type":"Point","coordinates":[-9.179444,38.749444]},"type":"Feature","properties":{"stationID":6,"lineID":1,"line":"Azul","name":"Alto dos Moinhos"}},{"geometry":{"type":"Point","coordinates":[-9.171944,38.748056]},"type":"Feature","properties":{"stationID":7,"lineID":1,"line":"Azul","name":"Laranjeiras"}},{"geometry":{"type":"Point","coordinates":[-9.168611,38.741944]},"type":"Feature","properties":{"stationID":8,"lineID":1,"line":"Azul","name":"Jardim Zool\u00f3gico"}},{"geometry":{"type":"Point","coordinates":[-9.159444,38.737222]},"type":"Feature","properties":{"stationID":9,"lineID":1,"line":"Azul","name":"Pra\u00e7a de Espanha"}},{"geometry":{"type":"Point","coordinates":[-9.154444,38.734444]},"type":"Feature","properties":{"stationID":10,"lineID":1,"line":"Azul","name":"S\u00e3o Sebasti\u00e3o"}},{"geometry":{"type":"Point","coordinates":[-9.15,38.729167]},"type":"Feature","properties":{"stationID":11,"lineID":1,"line":"Azul","name":"Parque"}},{"geometry":{"type":"Point","coordinates":[-9.150278,38.724444]},"type":"Feature","properties":{"stationID":12,"lineID":1,"line":"Azul","name":"Marqu\u00eas de Pombal"}},{"geometry":{"type":"Point","coordinates":[-9.145833,38.72]},"type":"Feature","properties":{"stationID":13,"lineID":1,"line":"Azul","name":"Avenida"}},{"geometry":{"type":"Point","coordinates":[-9.141389,38.715]},"type":"Feature","properties":{"stationID":14,"lineID":1,"line":"Azul","name":"Restauradores"}},{"geometry":{"type":"Point","coordinates":[-9.139167,38.710556]},"type":"Feature","properties":{"stationID":15,"lineID":1,"line":"Azul","name":"Baixa-Chiado"}},{"geometry":{"type":"Point","coordinates":[-9.135278,38.706389]},"type":"Feature","properties":{"stationID":16,"lineID":1,"line":"Azul","name":"Terreiro do Pa\u00e7o"}},{"geometry":{"type":"Point","coordinates":[-9.123333,38.7125]},"type":"Feature","properties":{"stationID":17,"lineID":1,"line":"Azul","name":"Santa Apol\u00f3nia"}},{"geometry":{"type":"Point","coordinates":[-9.172778,38.793056]},"type":"Feature","properties":{"stationID":18,"lineID":2,"line":"Amarela","name":"Odivelas"}},{"geometry":{"type":"Point","coordinates":[-9.171111,38.785556]},"type":"Feature","properties":{"stationID":19,"lineID":2,"line":"Amarela","name":"Senhor Roubado"}},{"geometry":{"type":"Point","coordinates":[-9.16,38.779167]},"type":"Feature","properties":{"stationID":20,"lineID":2,"line":"Amarela","name":"Ameixoeira"}},{"geometry":{"type":"Point","coordinates":[-9.159722,38.772778]},"type":"Feature","properties":{"stationID":21,"lineID":2,"line":"Amarela","name":"Lumiar"}},{"geometry":{"type":"Point","coordinates":[-9.155556,38.766944]},"type":"Feature","properties":{"stationID":22,"lineID":2,"line":"Amarela","name":"Quinta das Conchas"}},{"geometry":{"type":"Point","coordinates":[-9.157778,38.76]},"type":"Feature","properties":{"stationID":23,"lineID":2,"line":"Amarela","name":"Campo Grande"}},{"geometry":{"type":"Point","coordinates":[-9.158611,38.751667]},"type":"Feature","properties":{"stationID":24,"lineID":2,"line":"Amarela","name":"Cidade Universit\u00e1ria"}},{"geometry":{"type":"Point","coordinates":[-9.148611,38.747778]},"type":"Feature","properties":{"stationID":25,"lineID":2,"line":"Amarela","name":"Entre Campos"}},{"geometry":{"type":"Point","coordinates":[-9.146667,38.741389]},"type":"Feature","properties":{"stationID":26,"lineID":2,"line":"Amarela","name":"Campo Pequeno"}},{"geometry":{"type":"Point","coordinates":[-9.145,38.735]},"type":"Feature","properties":{"stationID":27,"lineID":2,"line":"Amarela","name":"Saldanha"}},{"geometry":{"type":"Point","coordinates":[-9.146944,38.730833]},"type":"Feature","properties":{"stationID":28,"lineID":2,"line":"Amarela","name":"Picoas"}},{"geometry":{"type":"Point","coordinates":[-9.155556,38.719722]},"type":"Feature","properties":{"stationID":29,"lineID":2,"line":"Amarela","name":"Rato"}},{"geometry":{"type":"Point","coordinates":[-9.165,38.760556]},"type":"Feature","properties":{"stationID":30,"lineID":3,"line":"Verde","name":"Telheiras"}},{"geometry":{"type":"Point","coordinates":[-9.143889,38.753333]},"type":"Feature","properties":{"stationID":31,"lineID":3,"line":"Verde","name":"Alvalade"}},{"geometry":{"type":"Point","coordinates":[-9.141389,38.748889]},"type":"Feature","properties":{"stationID":32,"lineID":3,"line":"Verde","name":"Roma"}},{"geometry":{"type":"Point","coordinates":[-9.134167,38.742222]},"type":"Feature","properties":{"stationID":33,"lineID":3,"line":"Verde","name":"Areeiro"}},{"geometry":{"type":"Point","coordinates":[-9.133889,38.736389]},"type":"Feature","properties":{"stationID":34,"lineID":3,"line":"Verde","name":"Alameda"}},{"geometry":{"type":"Point","coordinates":[-9.133889,38.733056]},"type":"Feature","properties":{"stationID":35,"lineID":3,"line":"Verde","name":"Arroios"}},{"geometry":{"type":"Point","coordinates":[-9.134722,38.726111]},"type":"Feature","properties":{"stationID":36,"lineID":3,"line":"Verde","name":"Anjos"}},{"geometry":{"type":"Point","coordinates":[-9.135,38.7225]},"type":"Feature","properties":{"stationID":37,"lineID":3,"line":"Verde","name":"Intendente"}},{"geometry":{"type":"Point","coordinates":[-9.135556,38.716944]},"type":"Feature","properties":{"stationID":38,"lineID":3,"line":"Verde","name":"Martim Moniz"}},{"geometry":{"type":"Point","coordinates":[-9.138056,38.713611]},"type":"Feature","properties":{"stationID":39,"lineID":3,"line":"Verde","name":"Rossio"}},{"geometry":{"type":"Point","coordinates":[-9.1425,38.705278]},"type":"Feature","properties":{"stationID":40,"lineID":3,"line":"Verde","name":"Cais do Sodr\u00e9"}},{"geometry":{"type":"Point","coordinates":[-9.123889,38.739167]},"type":"Feature","properties":{"stationID":41,"lineID":4,"line":"Vermelha","name":"Olaias"}},{"geometry":{"type":"Point","coordinates":[-9.116944,38.746667]},"type":"Feature","properties":{"stationID":42,"lineID":4,"line":"Vermelha","name":"Bela Vista"}},{"geometry":{"type":"Point","coordinates":[-9.113611,38.754167]},"type":"Feature","properties":{"stationID":43,"lineID":4,"line":"Vermelha","name":"Chelas"}},{"geometry":{"type":"Point","coordinates":[-9.112222,38.76]},"type":"Feature","properties":{"stationID":44,"lineID":4,"line":"Vermelha","name":"Olivais"}},{"geometry":{"type":"Point","coordinates":[-9.103889,38.7625]},"type":"Feature","properties":{"stationID":45,"lineID":4,"line":"Vermelha","name":"Cabo Ruivo"}},{"geometry":{"type":"Point","coordinates":[-9.100278,38.767222]},"type":"Feature","properties":{"stationID":46,"lineID":4,"line":"Vermelha","name":"Oriente"}},{"geometry":{"type":"Point","coordinates":[-9.1025,38.775]},"type":"Feature","properties":{"stationID":47,"lineID":4,"line":"Vermelha","name":"Moscavide"}},{"geometry":{"type":"Point","coordinates":[-9.115,38.77501]},"type":"Feature","properties":{"stationID":48,"lineID":4,"line":"Vermelha","name":"Encarna\u00e7\u00e3o"}},{"geometry":{"type":"Point","coordinates":[-9.128611,38.768611]},"type":"Feature","properties":{"stationID":49,"lineID":4,"line":"Vermelha","name":"Aeroporto"}}]}